{
"type": "FeatureCollection",
"name": "gauges-munis",
"crs": { "type": "name", "properties": { "name": "urn:ogc:def:crs:OGC:1.3:CRS84" } },
"features": [
{ "type": "Feature", "properties": { "OBJECTID": 1, "ID": 2660, "NAME": "PWSA (Observatory Hill)", "ADDRESS": "Montana St. Pittsburgh, PA 15214", "WEB_NAME": "Observatory Hill", "LAT": "N40° 29' 36.400\"", "LON": "W80° 1' 10.410\"", "ELEV_FT": 1369.0, "ANT_ELEV": 20, "NWS_DES": "OBSP1", "Y": 40.49344444, "X": -80.01955833, "GlobalID": "1496a324-e962-4f81-9694-2ec0784f6719", "webid": 1, "LABEL": null }, "geometry": { "type": "Point", "coordinates": [ -80.01955833005286, 40.493444439709208 ] } },
{ "type": "Feature", "properties": { "OBJECTID": 2, "ID": 2661, "NAME": "Alcosan", "ADDRESS": "3300 Preble Ave Pgh. Pa. 15233", "WEB_NAME": "Alcosan", "LAT": "N40° 28' 34.030\"", "LON": "W80° 2' 32.820\"", "ELEV_FT": 737.1, "ANT_ELEV": 6, "NWS_DES": "PBWP1", "Y": 40.47611944, "X": -80.04245, "GlobalID": "07fc24c5-e13b-48b2-accf-047d885372e6", "webid": 2, "LABEL": null }, "geometry": { "type": "Point", "coordinates": [ -80.042449999867415, 40.476119440260106 ] } },
{ "type": "Feature", "properties": { "OBJECTID": 3, "ID": 2662, "NAME": "Shaler", "ADDRESS": "300 Wetzel Rd. Glenshaw, Pa.15116", "WEB_NAME": "Shaler", "LAT": "N40° 31' 26.830\"", "LON": "W79° 58' 10.520\"", "ELEV_FT": 945.4, "ANT_ELEV": 6, "NWS_DES": "STPP1", "Y": 40.52411944, "X": -79.96958889, "GlobalID": "5e186f86-1f93-4bb6-b477-912ccb6f46a8", "webid": 3, "LABEL": null }, "geometry": { "type": "Point", "coordinates": [ -79.969588890015075, 40.524119439660581 ] } },
{ "type": "Feature", "properties": { "OBJECTID": 4, "ID": 2663, "NAME": "Kennedy TWP.", "ADDRESS": "Diebold Pump Station Coraopolis, Pa. 15108", "WEB_NAME": "KennedyTwp", "LAT": "N40° 28' 31.330\"", "LON": "W80° 6' 48.920\"", "ELEV_FT": 997.4, "ANT_ELEV": 6, "NWS_DES": "KYTP1", "Y": 40.47536944, "X": -80.11358889, "GlobalID": "e66f745d-fb59-4e70-a5d9-34af1f6ac0aa", "webid": 4, "LABEL": null }, "geometry": { "type": "Point", "coordinates": [ -80.113588890015194, 40.475369439847952 ] } },
{ "type": "Feature", "properties": { "OBJECTID": 5, "ID": 2664, "NAME": "Upper St. Clair", "ADDRESS": "Upper St. Clair Community & Rec. Ctr. 1551 Mayview Rd. Upper St. Clair, PA 15241", "WEB_NAME": "Upper St. Clair", "LAT": "N40° 20' 6.180\"", "LON": "W80° 6' 35.280\"", "ELEV_FT": 941.0, "ANT_ELEV": 6, "NWS_DES": "USCP1", "Y": 40.33505, "X": -80.1098, "GlobalID": "922be92f-5673-490e-8fbe-497ce11b81ae", "webid": 5, "LABEL": null }, "geometry": { "type": "Point", "coordinates": [ -80.109800000369546, 40.335049999857915 ] } },
{ "type": "Feature", "properties": { "OBJECTID": 6, "ID": 2665, "NAME": "Carnegie T.T.", "ADDRESS": "Hammond St Carnegie Pa.", "WEB_NAME": "Carnegie", "LAT": "N40° 24' 0.860\"", "LON": "W80° 5' 47.720\"", "ELEV_FT": 840.1, "ANT_ELEV": 6, "NWS_DES": "CNGP1", "Y": 40.40023889, "X": -80.09658889000001, "GlobalID": "8e052dd1-caf0-45e3-adae-20638d5aed6a", "webid": 6, "LABEL": null }, "geometry": { "type": "Point", "coordinates": [ -80.096588890264911, 40.400238889912998 ] } },
{ "type": "Feature", "properties": { "OBJECTID": 7, "ID": 2666, "NAME": "Greentree", "ADDRESS": "Greentree Borough Maintenance Garage Poplar St. Pgh. PA 15220", "WEB_NAME": "Greentree", "LAT": "N40° 25' 7.840\"", "LON": "W80° 3' 2.770\"", "ELEV_FT": 1178.7, "ANT_ELEV": 20, "NWS_DES": "GTBP1", "Y": 40.41884444, "X": -80.05076944, "GlobalID": "0dabc021-d8e8-4db0-8af4-2b6702b082d5", "webid": 7, "LABEL": null }, "geometry": { "type": "Point", "coordinates": [ -80.050769440157524, 40.418844440318935 ] } },
{ "type": "Feature", "properties": { "OBJECTID": 8, "ID": 2667, "NAME": "ACHD Bldg. 7 -3RWW Office", "ADDRESS": "3901 Penn Ave. Pgh. Pa. 15224", "WEB_NAME": "Lawrenceville", "LAT": "N40° 27' 55.760\"", "LON": "W79° 57' 38.810\"", "ELEV_FT": 830.2, "ANT_ELEV": 20, "NWS_DES": "LVHP1", "Y": 40.46548889, "X": -79.96078056, "GlobalID": "f3bb5002-0066-4575-acfb-0b38e4c8185c", "webid": 8, "LABEL": null }, "geometry": { "type": "Point", "coordinates": [ -79.960780560274543, 40.465488889800667 ] } },
{ "type": "Feature", "properties": { "OBJECTID": 9, "ID": 2668, "NAME": "Univ of Pittsburgh (Posvar Hall)", "ADDRESS": "230 S. Bouquet St, Pittsburgh, PA 15213", "WEB_NAME": "Univ of Pittsburgh (Posvar Hall)", "LAT": "N40° 26' 37.640\"", "LON": "W79° 57' 30.280\"", "ELEV_FT": 984.6, "ANT_ELEV": 6, "NWS_DES": "UOPP1", "Y": 40.44378889, "X": -79.95841111, "GlobalID": "8e06e8c9-f3d8-463c-aab5-4717aeff23f0", "webid": 9, "LABEL": null }, "geometry": { "type": "Point", "coordinates": [ -79.958411110184556, 40.443788890045482 ] } },
{ "type": "Feature", "properties": { "OBJECTID": 10, "ID": 2669, "NAME": "Highland Park (PWSA)", "ADDRESS": "Mellon & N. Negley Pgh. Pa. 15222", "WEB_NAME": "Highland Park", "LAT": "N40° 28' 47.860\"", "LON": "W79° 55' 21.900\"", "ELEV_FT": 915.0, "ANT_ELEV": 6, "NWS_DES": "HLPP1", "Y": 40.47996111, "X": -79.92275, "GlobalID": "ab05a2d5-d85c-4930-b952-6fb5647c3c03", "webid": 10, "LABEL": null }, "geometry": { "type": "Point", "coordinates": [ -79.922749999912412, 40.479961110217175 ] } },
{ "type": "Feature", "properties": { "OBJECTID": 11, "ID": 2670, "NAME": "M-46 Access Shaft", "ADDRESS": "9 mile run  Old Brownshill Rd.", "WEB_NAME": "9 Mile Run", "LAT": "N40° 25' 27.370\"", "LON": "W79° 54' 18.900\"", "ELEV_FT": 800.5, "ANT_ELEV": 6, "NWS_DES": "PGNP1", "Y": 40.42426944, "X": -79.90525, "GlobalID": "2738d9cf-35f3-4728-aa17-0fb1432f2e7e", "webid": 11, "LABEL": null }, "geometry": { "type": "Point", "coordinates": [ -79.905249999587625, 40.424269439583156 ] } },
{ "type": "Feature", "properties": { "OBJECTID": 12, "ID": 2671, "NAME": "Baldwin Boro", "ADDRESS": "3344 Churchview Ave. Pgh. Pa. 15227", "WEB_NAME": "Baldwin", "LAT": "N40° 23' 0.490\"", "LON": "W79° 57' 23.900\"", "ELEV_FT": 1193.2, "ANT_ELEV": 6, "NWS_DES": "BDWP1", "Y": 40.38346944, "X": -79.95663889, "GlobalID": "59ad3cf0-f4d1-49f3-b41e-835cac767a29", "webid": 12, "LABEL": null }, "geometry": { "type": "Point", "coordinates": [ -79.956638889972737, 40.383469440362603 ] } },
{ "type": "Feature", "properties": { "OBJECTID": 13, "ID": 2672, "NAME": "M-59 Access Shaft", "ADDRESS": "11th St.. Braddock, Pa.", "WEB_NAME": "Braddock", "LAT": "N40° 23' 42.000\"", "LON": "W79° 51' 57.600\"", "ELEV_FT": 800.5, "ANT_ELEV": 6, "NWS_DES": "BOKP1", "Y": 40.395, "X": -79.866, "GlobalID": "a290e377-5f78-4691-bb63-725d636d9a0d", "webid": 13, "LABEL": null }, "geometry": { "type": "Point", "coordinates": [ -79.865999999899884, 40.394999999950244 ] } },
{ "type": "Feature", "properties": { "OBJECTID": 14, "ID": 2673, "NAME": "Wilkinsburg-Penn Reservoir (Churchill)", "ADDRESS": "2300 William Penn Hwy. Pgh. Pa. 15235", "WEB_NAME": "Churchill", "LAT": "N40° 26' 43.760\"", "LON": "W79° 51' 0.830\"", "ELEV_FT": 1197.5, "ANT_ELEV": 20, "NWS_DES": "CHHP1", "Y": 40.44548889, "X": -79.85023056, "GlobalID": "8a42051a-c1bf-42ef-b018-94c0c4df0fa1", "webid": 14, "LABEL": null }, "geometry": { "type": "Point", "coordinates": [ -79.850230559592546, 40.445488890200352 ] } },
{ "type": "Feature", "properties": { "OBJECTID": 15, "ID": 2674, "NAME": "Trafford", "ADDRESS": "P.W. garage Brinton Ave. Trafford Pa.", "WEB_NAME": "Trafford", "LAT": "N40° 22' 51.740\"", "LON": "W79° 45' 45.430\"", "ELEV_FT": 860.9, "ANT_ELEV": 6, "NWS_DES": "TFFP1", "Y": 40.38103889, "X": -79.76261944, "GlobalID": "66214ba1-58d9-436f-a65d-f62690dd82f8", "webid": 15, "LABEL": null }, "geometry": { "type": "Point", "coordinates": [ -79.762619440434719, 40.381038890332718 ] } },
{ "type": "Feature", "properties": { "OBJECTID": 16, "ID": 2675, "NAME": "Castle Shannon", "ADDRESS": "3310 McRoberts Rd. Pgh. Pa. 15234", "WEB_NAME": "CastleShannon", "LAT": "N40° 22' 2.960\"", "LON": "W80° 0' 31.610\"", "ELEV_FT": 1117.7, "ANT_ELEV": 6, "NWS_DES": "CLGP1", "Y": 40.36748889, "X": -80.00878056000001, "GlobalID": "c2d2eece-4205-447e-b94e-3f0313d341e9", "webid": 16, "LABEL": null }, "geometry": { "type": "Point", "coordinates": [ -80.00878055967496, 40.367488889600793 ] } },
{ "type": "Feature", "properties": { "OBJECTID": 17, "ID": 2676, "NAME": "Chartiers", "ADDRESS": "1000 Presto-Sygan Rd. Bridgeville, Pa. 15017-1327", "WEB_NAME": "Bridgeville", "LAT": "N40° 21' 57.280\"", "LON": "W80° 7' 13.840\"", "ELEV_FT": 899.0, "ANT_ELEV": 6, "NWS_DES": "BGVP1", "Y": 40.36591111, "X": -80.12051111, "GlobalID": "2e5709f7-a8a9-4576-900b-fecd41d64619", "webid": 17, "LABEL": null }, "geometry": { "type": "Point", "coordinates": [ -80.12051111029939, 40.365911110009904 ] } },
{ "type": "Feature", "properties": { "OBJECTID": 18, "ID": 2677, "NAME": "Oakdale", "ADDRESS": "Oakdale Industrial Park Noblestown Rd. Oakdale Pa. 15071", "WEB_NAME": "Oakdale", "LAT": "N40° 24' 2.840\"", "LON": "W80° 10' 35.470\"", "ELEV_FT": 899.0, "ANT_ELEV": 6, "NWS_DES": "OKDP1", "Y": 40.40078889, "X": -80.17651944000001, "GlobalID": "02bd8e86-8a28-4165-943e-49dd9c5d7657", "webid": 18, "LABEL": null }, "geometry": { "type": "Point", "coordinates": [ -80.176519440319794, 40.400788890095441 ] } },
{ "type": "Feature", "properties": { "OBJECTID": 19, "ID": 2678, "NAME": "Sandy Creek", "ADDRESS": "Alcosan Pump station\/Sandy Creek Rd.", "WEB_NAME": "Penn Hills-North", "LAT": "N40° 28' 58.300\"", "LON": "W79° 51' 1.660\"", "ELEV_FT": 839.7, "ANT_ELEV": 6, "NWS_DES": "PHNP1", "Y": 40.48286111, "X": -79.85046111, "GlobalID": "861ecbe4-df3c-41ff-9284-4552b8e879ba", "webid": 19, "LABEL": null }, "geometry": { "type": "Point", "coordinates": [ -79.850461109792207, 40.482861109952466 ] } },
{ "type": "Feature", "properties": { "OBJECTID": 20, "ID": 2679, "NAME": "Gascola", "ADDRESS": "500 Thomson Run Rd. (Penn Hills Pump Station)", "WEB_NAME": "Penn Hills-South", "LAT": "N40° 27' 14.000\"", "LON": "W79° 47' 51.760\"", "ELEV_FT": 941.2, "ANT_ELEV": 6, "NWS_DES": "PHSP1", "Y": 40.45388889, "X": -79.79771111, "GlobalID": "1e57b7b7-d52d-4a7a-a20d-de5d6ef38d53", "webid": 20, "LABEL": null }, "geometry": { "type": "Point", "coordinates": [ -79.797711109879742, 40.453888889960524 ] } },
{ "type": "Feature", "properties": { "OBJECTID": 21, "ID": 2680, "NAME": "Moon", "ADDRESS": "150 Fern Hollow Rd. Coraopolis, PA 15108", "WEB_NAME": "Moon Twp.", "LAT": "N40° 31' 26.839\"", "LON": "W80° 11' 37.309\"", "ELEV_FT": 1121.0, "ANT_ELEV": 6, "NWS_DES": "MFRP1", "Y": 40.52412222, "X": -80.1936972, "GlobalID": "29008644-46a2-4b0b-9a94-dd5a6da9cc5a", "webid": 21, "LABEL": null }, "geometry": { "type": "Point", "coordinates": [ -80.193697000416023, 40.524122000030445 ] } },
{ "type": "Feature", "properties": { "OBJECTID": 22, "ID": 2681, "NAME": "North Fayette", "ADDRESS": "400 N. Branch Rd. Oakdale Pa. 15071", "WEB_NAME": "North Fayette", "LAT": "N40° 25' 0.410\"", "LON": "W80° 13' 24.820\"", "ELEV_FT": 997.7, "ANT_ELEV": 6, "NWS_DES": "NFTP1", "Y": 40.41678056, "X": -80.22356111000001, "GlobalID": "f038db76-311c-490c-a065-951760ac4bb2", "webid": 22, "LABEL": null }, "geometry": { "type": "Point", "coordinates": [ -80.223561109557465, 40.416780560074983 ] } },
{ "type": "Feature", "properties": { "OBJECTID": 23, "ID": 2682, "NAME": "Findlay", "ADDRESS": "1271 RT. 30 Clinton Pa. 15026", "WEB_NAME": "Findlay", "LAT": "N40° 29' 22.920\"", "LON": "W80° 17' 47.220\"", "ELEV_FT": 1197.5, "ANT_ELEV": 6, "NWS_DES": "FMBP1", "Y": 40.4897, "X": -80.29645, "GlobalID": "555bc897-0da7-4c5d-97f8-29c527f18e66", "webid": 23, "LABEL": null }, "geometry": { "type": "Point", "coordinates": [ -80.296450000367145, 40.489699999955235 ] } },
{ "type": "Feature", "properties": { "OBJECTID": 24, "ID": 2683, "NAME": "Jefferson Hills", "ADDRESS": "Borough Building 925 Old Clairton Rd. Jefferson Hills, PA 15025", "WEB_NAME": "Jefferson Hills", "LAT": "N40° 17' 51.000\"", "LON": "W79° 55' 48.000\"", "ELEV_FT": 1056.0, "ANT_ELEV": 6, "NWS_DES": "BRUP1", "Y": 40.2975, "X": -79.93, "GlobalID": "2246af18-759a-46d5-beff-eb10260bbee2", "webid": 24, "LABEL": null }, "geometry": { "type": "Point", "coordinates": [ -79.929999999700044, 40.297500000325044 ] } },
{ "type": "Feature", "properties": { "OBJECTID": 25, "ID": 2684, "NAME": "White Oak", "ADDRESS": "2280 Lincoln Way White Oak Pa. 15131", "WEB_NAME": "White Oak", "LAT": "N40° 19' 48.540\"", "LON": "W79° 47' 57.480\"", "ELEV_FT": 936.5, "ANT_ELEV": 6, "NWS_DES": "WOWP1", "Y": 40.33015, "X": -79.7993, "GlobalID": "8d93d52e-25ad-4485-8bcd-565cf96d5bc5", "webid": 25, "LABEL": null }, "geometry": { "type": "Point", "coordinates": [ -79.799299999695108, 40.330149999623018 ] } },
{ "type": "Feature", "properties": { "OBJECTID": 26, "ID": 2685, "NAME": "Elizabeth TWP.", "ADDRESS": "522 Rock Run Rd. Elizabeth Pa. 15037", "WEB_NAME": "Elizabeth", "LAT": "N40° 16' 17.470\"", "LON": "W79° 49' 21.720\"", "ELEV_FT": 1094.9, "ANT_ELEV": 6, "NWS_DES": "ETMP1", "Y": 40.27151944, "X": -79.8227, "GlobalID": "78295092-bc0f-488a-97c1-6a1c883bd31d", "webid": 26, "LABEL": null }, "geometry": { "type": "Point", "coordinates": [ -79.822699999605106, 40.27151943987036 ] } },
{ "type": "Feature", "properties": { "OBJECTID": 27, "ID": 2686, "NAME": "Marshall", "ADDRESS": "525 Pleasant Hills Rd. Warrendale Pa. 15086", "WEB_NAME": "Marshall", "LAT": "N40° 39' 10.760\"", "LON": "W80° 6' 49.360\"", "ELEV_FT": 1197.5, "ANT_ELEV": 6, "NWS_DES": "MTBP1", "Y": 40.65298889, "X": -80.11371111, "GlobalID": "3e12b1ec-4fc5-4beb-875b-b822605ba460", "webid": 27, "LABEL": null }, "geometry": { "type": "Point", "coordinates": [ -80.113711109679741, 40.652988890325219 ] } },
{ "type": "Feature", "properties": { "OBJECTID": 28, "ID": 2687, "NAME": "Plum", "ADDRESS": "4555 New Texas Rd. Pgh. Pa. 15239", "WEB_NAME": "Plum", "LAT": "N40° 30' 12.460\"", "LON": "W79° 45' 43.130\"", "ELEV_FT": 997.4, "ANT_ELEV": 6, "NWS_DES": "PMBP1", "Y": 40.50346111, "X": -79.76198056, "GlobalID": "4d45dab7-8bb8-4276-bfe7-0ea293565c96", "webid": 28, "LABEL": null }, "geometry": { "type": "Point", "coordinates": [ -79.761980560254585, 40.503461110242256 ] } },
{ "type": "Feature", "properties": { "OBJECTID": 29, "ID": 2688, "NAME": "Bell Acres", "ADDRESS": "Maintenance Bldg. 1153 Campmeeting Rd. Sewickley, PA 15143", "WEB_NAME": "Bell Acres", "LAT": "N40° 35' 24.580\"", "LON": "W80° 10' 7.660\"", "ELEV_FT": 1195.0, "ANT_ELEV": 6, "NWS_DES": "BACP1", "Y": 40.59016111, "X": -80.16879444, "GlobalID": "35986dcf-afb6-48ea-bc3f-dbb157dcb319", "webid": 29, "LABEL": null }, "geometry": { "type": "Point", "coordinates": [ -80.168794440211173, 40.590161110047347 ] } },
{ "type": "Feature", "properties": { "OBJECTID": 30, "ID": 2689, "NAME": "McCandless", "ADDRESS": "Fish Run pump station rt.910 and Nickolson Rd.(279 Wexford Exit).", "WEB_NAME": "Franklin Park", "LAT": "N40° 36' 45.290\"", "LON": "W80° 5' 48.120\"", "ELEV_FT": 1228.6, "ANT_ELEV": 6, "NWS_DES": "CGTP1", "Y": 40.61258056, "X": -80.0967, "GlobalID": "466b1c60-a3c8-4cc1-9f16-b5657edc0dcd", "webid": 30, "LABEL": null }, "geometry": { "type": "Point", "coordinates": [ -80.096699999705152, 40.612580560244794 ] } },
{ "type": "Feature", "properties": { "OBJECTID": 31, "ID": 2690, "NAME": "Hampton", "ADDRESS": "2536 Toner Ave. Allison Park Pa. 15101", "WEB_NAME": "Hampton", "LAT": "N40° 33' 46.840\"", "LON": "W79° 57' 50.220\"", "ELEV_FT": 178.6, "ANT_ELEV": 6, "NWS_DES": "HPTP1", "Y": 40.56301111, "X": -79.96395, "GlobalID": "eeaf9eaf-ffd1-4223-9671-5c2a2e25ca30", "webid": 31, "LABEL": null }, "geometry": { "type": "Point", "coordinates": [ -79.963949999592728, 40.563011109874992 ] } },
{ "type": "Feature", "properties": { "OBJECTID": 32, "ID": 2691, "NAME": "Arnold", "ADDRESS": "Valley Middle School 1701 Alcoa Dr. Arnold, PA 15068", "WEB_NAME": "Arnold", "LAT": "N40° 34' 37.890\"", "LON": "W79° 45' 39.740\"", "ELEV_FT": 945.0, "ANT_ELEV": 6, "NWS_DES": "ARNP1", "Y": 40.57719167, "X": -79.76103889, "GlobalID": "a9ba29f6-1c7d-4fe8-b7bd-4480b973fd06", "webid": 32, "LABEL": null }, "geometry": { "type": "Point", "coordinates": [ -79.761038890032694, 40.577191670259595 ] } },
{ "type": "Feature", "properties": { "OBJECTID": 33, "ID": 2692, "NAME": "Richland", "ADDRESS": "4011 Dickey Rd. Gibsonia, Pa. 15044", "WEB_NAME": "Richland", "LAT": "N40° 38' 25.980\"", "LON": "W79° 57' 8.500\"", "ELEV_FT": 1195.3, "ANT_ELEV": 6, "NWS_DES": "RLTP1", "Y": 40.64055, "X": -79.95236111, "GlobalID": "48b6770f-2fba-42d3-978b-fc1c7b05ff54", "webid": 33, "LABEL": null }, "geometry": { "type": "Point", "coordinates": [ -79.952361109977176, 40.6405500001826 ] } },
{ "type": "Feature", "properties": { "OBJECTID": 34, "ID": 2548, "NAME": "Beechwood Farms", "ADDRESS": null, "WEB_NAME": "Beechwood Farms", "LAT": "N40° 32' 42.000\"", "LON": "W79° 54' 18.000\"", "ELEV_FT": null, "ANT_ELEV": null, "NWS_DES": null, "Y": 40.545, "X": -79.905, "GlobalID": "a94d8b95-a521-4598-a9d8-2d8559b596ce", "webid": null, "LABEL": null }, "geometry": { "type": "Point", "coordinates": [ -79.904999999999859, 40.545 ] } },
{ "type": "Feature", "properties": { "OBJECTID": 35, "ID": 2542, "NAME": "Castle Shannon", "ADDRESS": null, "WEB_NAME": "Castle Shannon", "LAT": "N40° 21' 31.993\"", "LON": "W80° 0' 54.000\"", "ELEV_FT": null, "ANT_ELEV": null, "NWS_DES": null, "Y": 40.358887, "X": -80.015, "GlobalID": "25384549-767f-4600-a6c3-b6a175a2a29a", "webid": null, "LABEL": null }, "geometry": { "type": "Point", "coordinates": [ -80.014999999999873, 40.358887 ] } },
{ "type": "Feature", "properties": { "OBJECTID": 37, "ID": 2549, "NAME": "Franklin Park", "ADDRESS": null, "WEB_NAME": "Franklin Park", "LAT": "N40° 33' 57.992\"", "LON": "W80° 4' 37.200\"", "ELEV_FT": null, "ANT_ELEV": null, "NWS_DES": null, "Y": 40.566109, "X": -80.077, "GlobalID": "3dfaf3a0-6237-4edb-8b12-39a02e83c6e7", "webid": null, "LABEL": null }, "geometry": { "type": "Point", "coordinates": [ -80.077, 40.566109 ] } },
{ "type": "Feature", "properties": { "OBJECTID": 38, "ID": 2547, "NAME": "Hampton Twp. Mun.", "ADDRESS": null, "WEB_NAME": "Hampton Twp. Mun.", "LAT": "N40° 35' 0.000\"", "LON": "W79° 55' 58.800\"", "ELEV_FT": null, "ANT_ELEV": null, "NWS_DES": null, "Y": 40.583332, "X": -79.933, "GlobalID": "c0dc6acd-b482-485b-a5b9-b5770d473681", "webid": null, "LABEL": null }, "geometry": { "type": "Point", "coordinates": [ -79.933, 40.583332 ] } },
{ "type": "Feature", "properties": { "OBJECTID": 39, "ID": 2543, "NAME": "Holiday Park", "ADDRESS": null, "WEB_NAME": "Holiday Park", "LAT": "N40° 27' 46.800\"", "LON": "W79° 43' 34.993\"", "ELEV_FT": null, "ANT_ELEV": null, "NWS_DES": null, "Y": 40.463, "X": -79.726387, "GlobalID": "962c6cfd-6e0e-4c9e-a5a1-b345c184e962", "webid": null, "LABEL": null }, "geometry": { "type": "Point", "coordinates": [ -79.726387, 40.463 ] } },
{ "type": "Feature", "properties": { "OBJECTID": 40, "ID": 2544, "NAME": "North Hills", "ADDRESS": null, "WEB_NAME": "North Hills", "LAT": "N40° 33' 35.993\"", "LON": "W80° 1' 33.600\"", "ELEV_FT": null, "ANT_ELEV": null, "NWS_DES": null, "Y": 40.559998, "X": -80.026, "GlobalID": "684fff66-a8ca-4240-8f28-a13a76666db5", "webid": null, "LABEL": null }, "geometry": { "type": "Point", "coordinates": [ -80.025999999999897, 40.559998 ] } },
{ "type": "Feature", "properties": { "OBJECTID": 42, "ID": 2541, "NAME": "South Hills Village", "ADDRESS": null, "WEB_NAME": "South Hills Village", "LAT": "N40° 20' 52.001\"", "LON": "W80° 2' 56.400\"", "ELEV_FT": null, "ANT_ELEV": null, "NWS_DES": null, "Y": 40.347778, "X": -80.049, "GlobalID": "37a452d2-54ac-4a87-9c1d-48c5bf33ee86", "webid": null, "LABEL": null }, "geometry": { "type": "Point", "coordinates": [ -80.049, 40.347778000000119 ] } },
{ "type": "Feature", "properties": { "OBJECTID": 43, "ID": 2546, "NAME": "West Deer Park", "ADDRESS": null, "WEB_NAME": "West Deer Park", "LAT": null, "LON": null, "ELEV_FT": null, "ANT_ELEV": null, "NWS_DES": null, "Y": null, "X": null, "GlobalID": "227df82b-35c0-4c7d-ad95-e072b0ce0d42", "webid": null, "LABEL": null }, "geometry": { "type": "Point", "coordinates": [ -79.799, 40.329998 ] } }
]
}
